Name,Latitude,Longitude,Description,Foursquare URL
Alaska,40.70725676596536,-73.93249470216864,"From Foursquare list: Brokelyn Beer Book Bars, #3 and 4",https://app.foursquare.com/v/alaska/4fdc0c86e4b0ede381ca3d57
Bar Great Harry,40.68231772043119,-73.99337042174062,"From Foursquare list: Brokelyn Beer Book Bars, #3 and 4",https://app.foursquare.com/v/bar-great-harry/475b9b74f964a520d34c1fe3
Bedford Hill,40.68753342134423,-73.95710329560518,"From Foursquare list: Brokelyn Beer Book Bars, #3 and 4",https://app.foursquare.com/v/bedford-hill/4cd024919d87224b684e533b
Boulevard Tavern,40.72126544789543,-73.94243724912936,"From Foursquare list: Brokelyn Beer Book Bars, #3 and 4",https://app.foursquare.com/v/boulevard-tavern/4412d2c3f964a520d8301fe3
Branded Saloon,,,"From Foursquare list: Brokelyn Beer Book Bars, #3 and 4",https://app.foursquare.com/v/branded-saloon/4bf721834a67c928eb2123cf
Brooklyn Brewery,,,"From Foursquare list: Brokelyn Beer Book Bars, #3 and 4",https://app.foursquare.com/v/brooklyn-brewery/3fd66200f964a5205deb1ee3
Brooklyn Fire Proof,,,"From Foursquare list: Brokelyn Beer Book Bars, #3 and 4",https://app.foursquare.com/v/brooklyn-fire-proof/4aea19bff964a52052b921e3
Brooklyn Tap House,,,"From Foursquare list: Brokelyn Beer Book Bars, #3 and 4",https://app.foursquare.com/v/brooklyn-tap-house/4e8398fdf790caced933cc04
Jake's Handcrafted / Der Kommissar,,,"From Foursquare list: Brokelyn Beer Book Bars, #3 and 4",https://app.foursquare.com/v/jakes-handcrafted--der-kommissar/4d99d71ff9574eb9e7804294
Duckduck,40.70740075842911,-73.94276444898748,"From Foursquare list: Brokelyn Beer Book Bars, #3 and 4",https://app.foursquare.com/v/duckduck/457430b9f964a520913e1fe3
Freddy's Bar,,,"From Foursquare list: Brokelyn Beer Book Bars, #3 and 4",https://app.foursquare.com/v/freddys-bar/4d35113b62a22d432a40049b
Good Co Bus,,,"From Foursquare list: Brokelyn Beer Book Bars, #3 and 4",https://app.foursquare.com/v/good-co-bus/4f2cc190e4b0ccb91226625d
Heavy Woods,40.70573795980849,-73.92139197180231,"From Foursquare list: Brokelyn Beer Book Bars, #3 and 4",https://app.foursquare.com/v/heavy-woods/50267c72e4b0dfdf252451dc
Hope & Anchor Diner,,,"From Foursquare list: Brokelyn Beer Book Bars, #3 and 4",https://app.foursquare.com/v/hope--anchor-diner/437fbc80f964a520d82a1fe3
113 N 8th St,,,"From Foursquare list: Brokelyn Beer Book Bars, #3 and 4",https://app.foursquare.com/v/113-n-8th-st/4bfde611f61dc9b669ca9fde
Lavender Lake,40.67855016555001,-73.98986396091094,"From Foursquare list: Brokelyn Beer Book Bars, #3 and 4",https://app.foursquare.com/v/lavender-lake/4fe67a8be4b0d55eff42728f
Littleneck,40.67716477320056,-73.98639760931952,"From Foursquare list: Brokelyn Beer Book Bars, #3 and 4",https://app.foursquare.com/v/littleneck/4ea2c05d0cd6fc5af3c0928b
Mama Joy's,,,"From Foursquare list: Brokelyn Beer Book Bars, #3 and 4",https://app.foursquare.com/v/mama-joys/4f0f18f5a17c60735551217b
Miles,,,"From Foursquare list: Brokelyn Beer Book Bars, #3 and 4",https://app.foursquare.com/v/miles/4f10c8cce4b0456266737b23
Pork Slope,40.674639028452546,-73.98184075391674,"From Foursquare list: Brokelyn Beer Book Bars, #3 and 4",https://app.foursquare.com/v/pork-slope/4bf094e53a15d13aa5c23e9f
Project Parlor,,,"From Foursquare list: Brokelyn Beer Book Bars, #3 and 4",https://app.foursquare.com/v/project-parlor/4ac8ef60f964a52068bd20e3
Rocky Sullivan's,,,"From Foursquare list: Brokelyn Beer Book Bars, #3 and 4",https://app.foursquare.com/v/rocky-sullivans/3fd66200f964a52013eb1ee3
Sea Witch,,,"From Foursquare list: Brokelyn Beer Book Bars, #3 and 4",https://app.foursquare.com/v/sea-witch/4ec71ef0e300719914b279b3
The Castello Plan,40.64047432977645,-73.96627546621937,"From Foursquare list: Brokelyn Beer Book Bars, #3 and 4",https://app.foursquare.com/v/the-castello-plan/4b86f610f964a52057a831e3
The Gate,,,"From Foursquare list: Brokelyn Beer Book Bars, #3 and 4",https://app.foursquare.com/v/the-gate/3fd66200f964a5201fee1ee3
The Gibson,,,"From Foursquare list: Brokelyn Beer Book Bars, #3 and 4",https://app.foursquare.com/v/the-gibson/49c060a7f964a52061551fe3
The Owl Farm,40.66948149785123,-73.98669030036675,"From Foursquare list: Brokelyn Beer Book Bars, #3 and 4",https://app.foursquare.com/v/the-owl-farm/4fe50f3de4b0c836715cae01
Ox Tavern,40.63485251400505,-73.9656268852588,"From Foursquare list: Brokelyn Beer Book Bars, #3 and 4",https://app.foursquare.com/v/ox-tavern/4c8afaad6418a143a961e5ce
Soft Spot Bar,40.71938936813866,-73.95608732748398,"From Foursquare list: Brokelyn Beer Book Bars, #3 and 4",https://app.foursquare.com/v/soft-spot-bar/4a558eb0f964a5203cb41fe3
The Way Station,,,"From Foursquare list: Brokelyn Beer Book Bars, #3 and 4",https://app.foursquare.com/v/the-way-station/4ad13502f964a5207fdd20e3
Banter Bar,40.712158443503704,-73.95727549306196,"From Foursquare list: Brokelyn Beer Book Bars, #3 and 4",https://app.foursquare.com/v/banter-bar/4d5333a85bdbb1f70a524ce6
Black Rabbit,40.73003879439584,-73.95658096238006,"From Foursquare list: Brokelyn Beer Book Bars, #3 and 4",https://app.foursquare.com/v/black-rabbit/46869096f964a52048481fe3
The Black Swan,40.68927388009543,-73.95518041357211,"From Foursquare list: Brokelyn Beer Book Bars, #3 and 4",https://app.foursquare.com/v/the-black-swan/4bb6daa5ef159c748ba076f7
The Brazen Head,40.68953817926355,-73.991493813197,"From Foursquare list: Brokelyn Beer Book Bars, #3 and 4",https://app.foursquare.com/v/the-brazen-head/3fd66200f964a5203af11ee3
Buschenschank,40.68312452798057,-73.99558559962855,"From Foursquare list: Brokelyn Beer Book Bars, #3 and 4",https://app.foursquare.com/v/buschenschank/4ebf131261af06192af35189
Brooklyn Ice House,40.67916447293933,-74.01110260410402,"From Foursquare list: Brokelyn Beer Book Bars, #3 and 4",https://app.foursquare.com/v/brooklyn-ice-house/4a074634f964a5203b731fe3
The Counting Room,40.72085140984947,-73.95666132142975,"From Foursquare list: Brokelyn Beer Book Bars, #3 and 4",https://app.foursquare.com/v/the-counting-room/4b7def17f964a520ceda2fe3
Dean Street,,,"From Foursquare list: Brokelyn Beer Book Bars, #3 and 4",https://app.foursquare.com/v/dean-street/4d3933e376d1a35dfd3d058e
The Double Windsor,40.660589357914574,-73.98037725727579,"From Foursquare list: Brokelyn Beer Book Bars, #3 and 4",https://app.foursquare.com/v/the-double-windsor/4a7c3df8f964a5200bec1fe3
Flatbush Farm & Bar(n),40.68252960208196,-73.97699108508294,"From Foursquare list: Brokelyn Beer Book Bars, #3 and 4",https://app.foursquare.com/v/flatbush-farm--barn/45850853f964a5209f3f1fe3
Full Circle Bar,40.71272118191018,-73.95664984156755,"From Foursquare list: Brokelyn Beer Book Bars, #3 and 4",https://app.foursquare.com/v/full-circle-bar/4af33812f964a520d2eb21e3
Halyards,40.6726806995374,-73.98989839455311,"From Foursquare list: Brokelyn Beer Book Bars, #3 and 4",https://app.foursquare.com/v/halyards/4d55eb2db4deb1f72e760a7a
High Dive,40.67502324920938,-73.98145048923546,"From Foursquare list: Brokelyn Beer Book Bars, #3 and 4",https://app.foursquare.com/v/high-dive/4a07bae4f964a52096731fe3
Lola BKLYN,,,"From Foursquare list: Brokelyn Beer Book Bars, #3 and 4",https://app.foursquare.com/v/lola-bklyn/49c55b73f964a520fb561fe3
Mable's Smokehouse & Banquet Hall,40.72105652960703,-73.95705163633818,"From Foursquare list: Brokelyn Beer Book Bars, #3 and 4",https://app.foursquare.com/v/mables-smokehouse--banquet-hall/4d3e1d2c6e0aa1cdb0fcf12c
Mission Dolores,40.676270710641944,-73.98363710906709,"From Foursquare list: Brokelyn Beer Book Bars, #3 and 4",https://app.foursquare.com/v/mission-dolores/4bb092aef964a520cc4c3ce3
Mugs Ale House,40.71936182971583,-73.95599548829432,"From Foursquare list: Brokelyn Beer Book Bars, #3 and 4",https://app.foursquare.com/v/mugs-ale-house/3fd66200f964a52065eb1ee3
Prospect,40.66572465801107,-73.98908920232871,"From Foursquare list: Brokelyn Beer Book Bars, #3 and 4",https://app.foursquare.com/v/prospect/4fff7a7ee4b077c7a9bba65b
The Sackett,,,"From Foursquare list: Brokelyn Beer Book Bars, #3 and 4",https://app.foursquare.com/v/the-sackett/4ad3efb9f964a520fee620e3
South,40.663102565942054,-73.99121260727689,"From Foursquare list: Brokelyn Beer Book Bars, #3 and 4",https://app.foursquare.com/v/south/4af5e676f964a52089fe21e3
South 4th Bar & Cafe,40.712295896686506,-73.96459374293866,"From Foursquare list: Brokelyn Beer Book Bars, #3 and 4",https://app.foursquare.com/v/south-4th-bar--cafe/45c5a871f964a52051421fe3
Sycamore Flower Shop + Bar,40.63982435564838,-73.96731433913916,"From Foursquare list: Brokelyn Beer Book Bars, #3 and 4",https://app.foursquare.com/v/sycamore-flower-shop--bar/49c4489df964a520b9561fe3
The Anchored Inn,40.70909331910223,-73.93708716600939,"From Foursquare list: Brokelyn Beer Book Bars, #3 and 4",https://app.foursquare.com/v/the-anchored-inn/4d673f06ae912d4396048f09
The Bedford,40.7198088151837,-73.95506561403909,"From Foursquare list: Brokelyn Beer Book Bars, #3 and 4",https://app.foursquare.com/v/the-bedford/4c084b91ffb8c9b6fe176861
The Bodega,40.70756142682349,-73.92189143607821,"From Foursquare list: Brokelyn Beer Book Bars, #3 and 4",https://app.foursquare.com/v/the-bodega/4ba19cb0f964a520c2c337e3
The Diamond,40.72653279965512,-73.95741325091682,"From Foursquare list: Brokelyn Beer Book Bars, #3 and 4",https://app.foursquare.com/v/the-diamond/4a1e0ca0f964a520bf7b1fe3
Union Hall,40.67627384039663,-73.98011899200594,"From Foursquare list: Brokelyn Beer Book Bars, #3 and 4",https://app.foursquare.com/v/union-hall/4481ada4f964a52018341fe3
Mazelle,,,"From Foursquare list: Brokelyn Beer Book Bars, #3 and 4",https://app.foursquare.com/v/mazelle/4fa19cb4e4b0ab90fc8b0421
Pine Box Rock Shop,40.705485430575884,-73.9330056191484,"From Foursquare list: Brokelyn Beer Book Bars, #3 and 4",https://app.foursquare.com/v/pine-box-rock-shop/4c5f7bddde6920a1a1169464
Waterfront Ale House,40.690372610611114,-73.99492563998128,"From Foursquare list: Brokelyn Beer Book Bars, #3 and 4",https://app.foursquare.com/v/waterfront-ale-house/3fd66200f964a5206feb1ee3
