Name,Latitude,Longitude,Description,Foursquare URL
Angelo’s Pizzeria,,,From Foursquare list: Philthydelphia,https://app.foursquare.com/v/angelos-pizzeria/5c3e7d82947c050038d9b6d0
Doobie's,,,From Foursquare list: Philthydelphia,https://app.foursquare.com/v/doobies/40b28c80f964a520b5fa1ee3
Bar Hygge,,,From Foursquare list: Philthydelphia,https://app.foursquare.com/v/bar-hygge/56685a49498e3021a9d236a8
Famous 4th Street Delicatessen,,,From Foursquare list: Philthydelphia,https://app.foursquare.com/v/famous-4th-street-delicatessen/49ffbe66f964a52049701fe3
Writer's Block Rehab,,,From Foursquare list: Philthydelphia,https://app.foursquare.com/v/writers-block-rehab/5861fd45727ba373f25c80d5
The Trestle Inn,,,From Foursquare list: Philthydelphia,https://app.foursquare.com/v/the-trestle-inn/4b5bb9a2f964a520721229e3
Charlie was a sinner.,39.94964392976561,-75.16200261067809,From Foursquare list: Philthydelphia,https://app.foursquare.com/v/charlie-was-a-sinner/53757808498ee116741e16a6
Hop Sing Laundromat,,,From Foursquare list: Philthydelphia,https://app.foursquare.com/v/hop-sing-laundromat/4e8e413f29c2c0d8cd1b28c9
South Philly Barbacoa,,,From Foursquare list: Philthydelphia,https://app.foursquare.com/v/south-philly-barbacoa/5ac401b6029a5521b5bd0251
El Compadre,,,From Foursquare list: Philthydelphia,https://app.foursquare.com/v/el-compadre/5775c3c9498e5c2285fc1301
Saté Kampar,,,From Foursquare list: Philthydelphia,https://app.foursquare.com/v/sat%C3%A9-kampar/56bfb2e0cd1013abe28e3c85
Nick's Old Original Roast Beef,,,From Foursquare list: Philthydelphia,https://app.foursquare.com/v/nicks-old-original-roast-beef/4b1d8a7ef964a520ed1124e3
The Rail Park,,,From Foursquare list: Philthydelphia,https://app.foursquare.com/v/the-rail-park/53a2f887498e44fe55ae50b0
Royal Boucherie,,,From Foursquare list: Philthydelphia,https://app.foursquare.com/v/royal-boucherie/5a07d1a4db1d816f163bd614
The Bourse,,,From Foursquare list: Philthydelphia,https://app.foursquare.com/v/the-bourse/4b96ece8f964a5202fee34e3
Pizzeria Beddia,,,From Foursquare list: Philthydelphia,https://app.foursquare.com/v/pizzeria-beddia/512e39ef183f89ef298ee220
Reading Terminal Market,39.95324332446296,-75.1596484276346,From Foursquare list: Philthydelphia,https://app.foursquare.com/v/reading-terminal-market/49d02b28f964a5200a5b1fe3
Good Dog Bar & Restaurant,39.9488637622882,-75.16610667111533,From Foursquare list: Philthydelphia,https://app.foursquare.com/v/good-dog-bar--restaurant/40b28c80f964a520cef81ee3
South Philadelphia Tap Room,39.927153101807065,-75.17149878749512,From Foursquare list: Philthydelphia,https://app.foursquare.com/v/south-philadelphia-tap-room/4517f2d6f964a520493a1fe3
Monk's Cafe,39.94776014940926,-75.16829545950256,From Foursquare list: Philthydelphia,https://app.foursquare.com/v/monks-cafe/40b28c80f964a520d3f81ee3
Memphis Taproom,39.98033150062126,-75.1230771187251,From Foursquare list: Philthydelphia,https://app.foursquare.com/v/memphis-taproom/49bac96ef964a520aa531fe3
The Mann Center,39.98559978234327,-75.21563762216513,From Foursquare list: Philthydelphia,https://app.foursquare.com/v/the-mann-center/4bcf41f8caff952105cfccf0
Cheu Noodle Bar,39.9467683564623,-75.15790414336921,From Foursquare list: Philthydelphia,https://app.foursquare.com/v/cheu-noodle-bar/5140a49be4b0e52a4b103e6b
John's Roast Pork,39.921028776393605,-75.14490690669217,From Foursquare list: Philthydelphia,https://app.foursquare.com/v/johns-roast-pork/4a79b2a7f964a52063e71fe3
Johnny Brenda's,39.969027208436806,-75.1342004827317,From Foursquare list: Philthydelphia,https://app.foursquare.com/v/johnny-brendas/40b28c80f964a520b8f91ee3
The Corner Foodery,39.950763944992495,-75.16927584440671,From Foursquare list: Philthydelphia,https://app.foursquare.com/v/the-corner-foodery/5113e11be4b05cd1f00802d5
Zahav,39.94635552440557,-75.14503802452388,From Foursquare list: Philthydelphia,https://app.foursquare.com/v/zahav/4a5ebb16f964a52020bf1fe3
HipCityVeg,39.950927090156455,-75.17048991722626,From Foursquare list: Philthydelphia,https://app.foursquare.com/v/hipcityveg/4f8c5b0ee4b0ddfd84f22db2
Khyber Pass Pub,39.948637460345026,-75.14409739418464,From Foursquare list: Philthydelphia,https://app.foursquare.com/v/khyber-pass-pub/3fd66200f964a520ebed1ee3
American Sardine Bar,39.937486441955684,-75.1762409608264,From Foursquare list: Philthydelphia,https://app.foursquare.com/v/american-sardine-bar/4ec96b52e5fa232a7778a1a8
Kraftwork,39.97206946175664,-75.12737604112621,From Foursquare list: Philthydelphia,https://app.foursquare.com/v/kraftwork/4be2f897cbdbef3be88160d8
Elixr Coffee Roasters,39.949359540433385,-75.16678497077888,From Foursquare list: Philthydelphia,https://app.foursquare.com/v/elixr-coffee-roasters/4d32fbfd9c2d5941211637d8
Tommy DiNic's,39.95324332446296,-75.1596484276346,From Foursquare list: Philthydelphia,https://app.foursquare.com/v/tommy-dinics/4b38f1d9f964a520c35225e3
Philadelphia Art Museum,,,From Foursquare list: Philthydelphia,https://app.foursquare.com/v/philadelphia-art-museum/41424000f964a5208d1c1fe3
Vedge,39.948090110445655,-75.16160359908461,From Foursquare list: Philthydelphia,https://app.foursquare.com/v/vedge/4e9cbaca5c5c1734ef46916c
Nam Phuong Restaurant,39.93645854907309,-75.16195130924423,From Foursquare list: Philthydelphia,https://app.foursquare.com/v/nam-phuong-restaurant/49ef1e88f964a5207f681fe3
Bottle Bar East,39.97052970650306,-75.13473639130243,From Foursquare list: Philthydelphia,https://app.foursquare.com/v/bottle-bar-east/507ad324e4b0c101c709028d
Dizengoff,,,From Foursquare list: Philthydelphia,https://app.foursquare.com/v/dizengoff/53e51a4a498e1e9714dc7c36
The Barnes Foundation,,,From Foursquare list: Philthydelphia,https://app.foursquare.com/v/the-barnes-foundation/4ae1d09df964a520a68721e3
Green Eggs Cafe,39.9624343935942,-75.14077948962081,From Foursquare list: Philthydelphia,https://app.foursquare.com/v/green-eggs-cafe/4c9de72354c8a1cd38fa874b
Honey's Sit 'n Eat,39.96383121507046,-75.14452495412579,From Foursquare list: Philthydelphia,https://app.foursquare.com/v/honeys-sit-n-eat/458e9dd5f964a52013401fe3
Dalessandro's Steaks,40.02904097516254,-75.20612132913111,From Foursquare list: Philthydelphia,https://app.foursquare.com/v/dalessandros-steaks/4ae52198f964a52060a021e3
North Third Restaurant,39.9634583205676,-75.1428717159248,From Foursquare list: Philthydelphia,https://app.foursquare.com/v/north-third-restaurant/419e8900f964a5202f1e1fe3
Silk City,,,From Foursquare list: Philthydelphia,https://app.foursquare.com/v/silk-city/40b28c80f964a52087f91ee3
Fountain Porter,39.929573992570994,-75.16148389540903,From Foursquare list: Philthydelphia,https://app.foursquare.com/v/fountain-porter/5078bf74e4b0a4757d8054a4
Prima Pizza Taqueria Mexicana,,,From Foursquare list: Philthydelphia,https://app.foursquare.com/v/prima-pizza-taqueria-mexicana/4fc1207ee4b089f18be88500
Loco Pez,39.97696915390415,-75.12729622135127,From Foursquare list: Philthydelphia,https://app.foursquare.com/v/loco-pez/4e7904f262e16455529ea095
David's MAI Lai Wah,,,From Foursquare list: Philthydelphia,https://app.foursquare.com/v/davids-mai-lai-wah/4a73e4cdf964a52096dd1fe3
Standard Tap,39.96404809581539,-75.14062556451836,From Foursquare list: Philthydelphia,https://app.foursquare.com/v/standard-tap/40b28c80f964a52088f91ee3
Paesano's Philly Style,39.96930651264608,-75.13832807198393,From Foursquare list: Philthydelphia,https://app.foursquare.com/v/paesanos-philly-style/4a5eb665f964a52010bf1fe3
La Colombe Coffee Roasters,,,From Foursquare list: Philthydelphia,https://app.foursquare.com/v/la-colombe-coffee-roasters/5427166a498e85a2c0b936b3
One Shot Cafe,39.96771142783868,-75.14106453571007,From Foursquare list: Philthydelphia,https://app.foursquare.com/v/one-shot-cafe/4a664d14f964a5205dc81fe3
Federal Donuts,39.95066143746343,-75.16830115943249,From Foursquare list: Philthydelphia,https://app.foursquare.com/v/federal-donuts/50698074e4b0913fe366282d
Pizza Brain,39.98073796689964,-75.12824835460968,From Foursquare list: Philthydelphia,https://app.foursquare.com/v/pizza-brain/4e35980ba8092599ee067c28
Italian Market,39.93740839695407,-75.15820625934965,From Foursquare list: Philthydelphia,https://app.foursquare.com/v/italian-market/4a7d9053f964a520d1ee1fe3
The Pub on Passyunk East,39.93099941103322,-75.16209951334075,From Foursquare list: Philthydelphia,https://app.foursquare.com/v/the-pub-on-passyunk-east/4a1e060ef964a520b97b1fe3
Ranstead Room,39.952600422716905,-75.17391548989475,From Foursquare list: Philthydelphia,https://app.foursquare.com/v/ranstead-room/4bd58edd5631c9b66139a430
V Street,39.950907492246266,-75.17135629208778,From Foursquare list: Philthydelphia,https://app.foursquare.com/v/v-street/544029ef498e4354cbdeb676
The Good King Tavern,39.9418137157076,-75.15401078550678,From Foursquare list: Philthydelphia,https://app.foursquare.com/v/the-good-king-tavern/5275501b11d23f6cc01041fa
Nan Zhou Hand Drawn Noodle House,39.95586616983818,-75.15695788956145,From Foursquare list: Philthydelphia,https://app.foursquare.com/v/nan-zhou-hand-drawn-noodle-house/4a74e237f964a520dddf1fe3
Philly Style Bagels,39.97444647819939,-75.1327637826927,From Foursquare list: Philthydelphia,https://app.foursquare.com/v/philly-style-bagels/54b2a2a8498e8053a88e432a
Abe Fisher,39.95076717873988,-75.16828405964208,From Foursquare list: Philthydelphia,https://app.foursquare.com/v/abe-fisher/5403c33a498e173768cad8d7
Locust Rendezvous,39.9483923292665,-75.16587867057058,From Foursquare list: Philthydelphia,https://app.foursquare.com/v/locust-rendezvous/40b28c80f964a520d2f81ee3
McGlinchey's,,,From Foursquare list: Philthydelphia,https://app.foursquare.com/v/mcglincheys/3fd66200f964a520aff11ee3
Oscar's Tavern,39.95045903895616,-75.16671087095817,From Foursquare list: Philthydelphia,https://app.foursquare.com/v/oscars-tavern/4a5a8d94f964a5208cba1fe3
Dirty Frank's,39.945355694124686,-75.16302863583786,From Foursquare list: Philthydelphia,https://app.foursquare.com/v/dirty-franks/40b28c80f964a5202bf91ee3
